{
    "type": "FeatureCollection",
    "features": [
        {
            "geometry": {
                "type": "Point",
                "coordinates": [2.3501649, 48.8737815]
            },
            "type": "Feature",
            "properties": {
                "name": "Bronco",
                "store_id": "1",
                "address": {
                    "street_number": "39",
                    "street": "Rue des Petites Écuries",
                    "postal_code": "75010",
                    "city": "Paris"
                },
                "phone": "+33 6 00 00 00 00",
                "category": "restaurant",
                "hours": "11am - 11pm",
                "ratings": [
                    {
                        "rating_id": "1",
                        "stars": 4,
                        "comment": "Un excellent restaurant, j'y reviendrai ! Par contre il vaut mieux aimer la viande."
                    },
                    {
                        "rating_id": "2",
                        "stars": 5,
                        "comment": "Tout simplement mon restaurant préféré !"
                    }
                ]
            }
        },
        {
            "geometry": {
                "type": "Point",
                "coordinates": [2.3442197, 48.8865035]
            },
            "type": "Feature",
            "properties": {
                "name": "Babalou",
                "store_id": "2",
                "address": {
                    "street_number": "4",
                    "street": "Rue Lamarck",
                    "postal_code": "75018",
                    "city": "Paris"
                },
                "phone": "+33 6 00 00 00 00",
                "category": "restaurant",
                "hours": "11am - 11pm",
                "ratings": [
                    {
                        "rating_id": "3",
                        "stars": 5,
                        "comment": "Une minuscule pizzeria délicieuse cachée juste à côté du Sacré choeur !"
                    },
                    {
                        "rating_id": "4",
                        "stars": 3,
                        "comment": "J'ai trouvé ça correct, sans plus"
                    }
                ]
            }
        },
        {
            "geometry": {
                "type": "Point",
                "coordinates": [2.318411, 48.847544]
            },
            "type": "Feature",
            "properties": {
                "name": "L'Alchimiste",
                "store_id": "3",
                "address": {
                    "street_number": "76",
                    "street": "Rue de Sèvres",
                    "postal_code": "75007",
                    "city": "Paris"
                },
                "phone": "+33 6 00 00 00 00",
                "category": "restaurant",
                "hours": "11am - 11pm",
                "ratings": [
                    {
                        "rating_id": "5",
                        "stars": 5,
                        "comment": "Des plats dont seul le propriétaire a la secret, j'y vais régulièrement !"
                    },
                    {
                        "rating_id": "6",
                        "stars": 4,
                        "comment": "Agréaglement surpris, on me l'a recommandé et je le recommanderai également."
                    }
                ]
            }
        },
        {
            "geometry": {
                "type": "Point",
                "coordinates": [2.400915, 48.854786]
            },
            "type": "Feature",
            "properties": {
                "name": "Le Coin des Artistes",
                "store_id": "4",
                "address": {
                    "street_number": "50",
                    "street": "Rue des Vignoles",
                    "postal_code": "75020",
                    "city": "Paris"
                },
                "phone": "+33 6 00 00 00 00",
                "category": "restaurant",
                "hours": "11am - 11pm",
                "ratings": [
                    {
                        "rating_id": "7",
                        "stars": 5,
                        "comment": "Pour changer un peu à la pause dej, je ne suis jamais déçu ! Des plats du jour souvent surprenants mais toujours très bons !"
                    },
                    {
                        "rating_id": "8",
                        "stars": 3,
                        "comment": "Peut-être un peu trop original dans les plats pour moi, de l'idée mais je n'étais pas toujours convaincu."
                    }
                ]
            }
        },
        {
            "geometry": {
                "type": "Point",
                "coordinates": [2.296981, 48.845904]
            },
            "type": "Feature",
            "properties": {
                "name": "La Véraison",
                "store_id": "5",
                "address": {
                    "street_number": "64",
                    "street": "Rue de la Croix Nivert",
                    "postal_code": "75015",
                    "city": "Paris"
                },
                "phone": "+33 6 00 00 00 00",
                "category": "restaurant",
                "hours": "11am - 11pm",
                "ratings": [
                    {
                        "rating_id": "9",
                        "stars": 5,
                        "comment": "Excellente adresse dans le 15ème. Un lieu très joli. Du choix dans le menu, des produits frais, très bien cuisinés. Une carte des vins variée, avec une belle sélection. Allez-y c'est vraiment top, et bon rapport qualité/prix."
                    },
                    {
                        "rating_id": "10",
                        "stars": 4,
                        "comment": "Cuisine française de qualité. Un bon choix de vins. Les plats sont délicieux. Le personnel est très accueillant et de bon conseil. Je recommande"
                    }
                ]
            }
        },
        {
            "geometry": {
                "type": "Point",
                "coordinates": [2.291192, 48.841879]
            },
            "type": "Feature",
            "properties": {
                "name": "Les Trois Garçons",
                "store_id": "6",
                "address": {
                    "street_number": "165",
                    "street": "Rue de Javel",
                    "postal_code": "75015",
                    "city": "Paris"
                },
                "phone": "+33 6 00 00 00 00",
                "category": "restaurant",
                "hours": "11am - 11pm",
                "ratings": [
                    {
                        "rating_id": "11",
                        "stars": 3,
                        "comment": "Brasserie sympa pour prendre un verre. Le service y a été rapide, efficace et très poli. La salle intérieure est agréable et au décor typique bien que l'odeur de cigarette issue de la terrasse ne nous épargne pas. Les verres sont un peu chers pour le quartier, mais ça reste correct dans le contexte parisien"
                    },
                    {
                        "rating_id": "12",
                        "stars": 4,
                        "comment": "Pas mal, service sympa et qualité très correcte. La terrasse par beau temps est top avec des enfants."
                    }
                ]
            }
        },
        {
            "geometry": {
                "type": "Point",
                "coordinates": [2.305080, 48.834728]
            },
            "type": "Feature",
            "properties": {
                "name": "Le Mal Accueillant",
                "store_id": "7",
                "address": {
                    "street_number": "27",
                    "street": "Rue Brancion",
                    "postal_code": "75015",
                    "city": "Paris"
                },
                "phone": "+33 6 00 00 00 00",
                "category": "restaurant",
                "hours": "11am - 11pm",
                "ratings": [
                    {
                        "rating_id": "13",
                        "stars": 1,
                        "comment": "Non mais quel accueil !! Je n'en reviens toujours pas ! Je n'y remettrai plus les pieds."
                    },
                    {
                        "rating_id": "14",
                        "stars": 2,
                        "comment": "Je me souviendrai longtemps de ce patron aussi méprisable avec ses clients ainsi qu'avec ses employées..."
                    }
                ]
            }
        }
    ]
}
